{
    "type": "FeatureCollection",
    "features": [
        {
            "type": "Feature",
            "geometry": {
                "type": "Point",
                "coordinates": [
                    19.050794,
                    47.49651
                ]
            },
            "properties": {
                "title": "V\u00f6r\u00f6smartyT\u00e9r",
                "count": 1
            }
        },
        {
            "type": "Feature",
            "geometry": {
                "type": "Point",
                "coordinates": [
                    18.044161,
                    59.347002
                ]
            },
            "properties": {
                "title": "V\u00e4ster\u00e5sgatan",
                "count": 1
            }
        },
        {
            "type": "Feature",
            "geometry": {
                "type": "Point",
                "coordinates": [
                    18.114107,
                    59.337277
                ]
            },
            "properties": {
                "title": "Ladug\u00e5rdsh\u00f6jd",
                "count": 1
            }
        },
        {
            "type": "Feature",
            "geometry": {
                "type": "Point",
                "coordinates": [
                    13.809127,
                    58.714444
                ]
            },
            "properties": {
                "title": "TittaP\u00e5F\u00e5glar",
                "count": 1
            }
        },
        {
            "type": "Feature",
            "geometry": {
                "type": "Point",
                "coordinates": [
                    18.016556,
                    59.282411
                ]
            },
            "properties": {
                "title": "\u00d6straG\u00f6taland",
                "count": 1
            }
        },
        {
            "type": "Feature",
            "geometry": {
                "type": "Point",
                "coordinates": [
                    18.073165,
                    59.320507
                ]
            },
            "properties": {
                "title": "Saltsj\u00f6rampen",
                "count": 1
            }
        },
        {
            "type": "Feature",
            "geometry": {
                "type": "Point",
                "coordinates": [
                    18.095463,
                    59.323061
                ]
            },
            "properties": {
                "title": "Berg\u00e5dalbanan",
                "count": 1
            }
        },
        {
            "type": "Feature",
            "geometry": {
                "type": "Point",
                "coordinates": [
                    15.117594,
                    60.884751
                ]
            },
            "properties": {
                "title": "R\u00e4ttviksh\u00e4st",
                "count": 1
            }
        },
        {
            "type": "Feature",
            "geometry": {
                "type": "Point",
                "coordinates": [
                    12.547005,
                    55.673432
                ]
            },
            "properties": {
                "title": "FrederiksAll\u00e9",
                "count": 1
            }
        },
        {
            "type": "Feature",
            "geometry": {
                "type": "Point",
                "coordinates": [
                    18.00351,
                    59.347526
                ]
            },
            "properties": {
                "title": "V\u00e4straSkogenT",
                "count": 1
            }
        },
        {
            "type": "Feature",
            "geometry": {
                "type": "Point",
                "coordinates": [
                    17.092911,
                    59.615656
                ]
            },
            "properties": {
                "title": "G\u00e5nstaSp\u00e5ret",
                "count": 1
            }
        },
        {
            "type": "Feature",
            "geometry": {
                "type": "Point",
                "coordinates": [
                    13.827678,
                    58.696942
                ]
            },
            "properties": {
                "title": "Lilla\u00d6nITidan",
                "count": 1
            }
        },
        {
            "type": "Feature",
            "geometry": {
                "type": "Point",
                "coordinates": [
                    16.587262,
                    59.625853
                ]
            },
            "properties": {
                "title": "Bj\u00f6rkgl\u00e4ntan",
                "count": 1
            }
        },
        {
            "type": "Feature",
            "geometry": {
                "type": "Point",
                "coordinates": [
                    14.61685,
                    60.916126
                ]
            },
            "properties": {
                "title": "Soller\u00f6nKyrka",
                "count": 1
            }
        },
        {
            "type": "Feature",
            "geometry": {
                "type": "Point",
                "coordinates": [
                    16.585912,
                    59.631372
                ]
            },
            "properties": {
                "title": "ToFinnsl\u00e4tten",
                "count": 1
            }
        },
        {
            "type": "Feature",
            "geometry": {
                "type": "Point",
                "coordinates": [
                    15.945387,
                    59.513079
                ]
            },
            "properties": {
                "title": "K\u00f6pingBilturf",
                "count": 1
            }
        },
        {
            "type": "Feature",
            "geometry": {
                "type": "Point",
                "coordinates": [
                    15.138769,
                    60.560007
                ]
            },
            "properties": {
                "title": "Djur\u00e5sStation",
                "count": 1
            }
        },
        {
            "type": "Feature",
            "geometry": {
                "type": "Point",
                "coordinates": [
                    17.133166,
                    59.639357
                ]
            },
            "properties": {
                "title": "Gl\u00f6mdeSv\u00e4nga",
                "count": 1
            }
        },
        {
            "type": "Feature",
            "geometry": {
                "type": "Point",
                "coordinates": [
                    18.105065,
                    59.344326
                ]
            },
            "properties": {
                "title": "GreenHillZone",
                "count": 1
            }
        },
        {
            "type": "Feature",
            "geometry": {
                "type": "Point",
                "coordinates": [
                    18.025273,
                    59.32772
                ]
            },
            "properties": {
                "title": "RolleScenZone",
                "count": 1
            }
        },
        {
            "type": "Feature",
            "geometry": {
                "type": "Point",
                "coordinates": [
                    18.054754,
                    59.348029
                ]
            },
            "properties": {
                "title": "Vanadisparken",
                "count": 1
            }
        },
        {
            "type": "Feature",
            "geometry": {
                "type": "Point",
                "coordinates": [
                    16.552904,
                    59.631374
                ]
            },
            "properties": {
                "title": "SunnysideZone",
                "count": 1
            }
        },
        {
            "type": "Feature",
            "geometry": {
                "type": "Point",
                "coordinates": [
                    12.565937,
                    55.680658
                ]
            },
            "properties": {
                "title": "\u00d8rstedBridge",
                "count": 1
            }
        },
        {
            "type": "Feature",
            "geometry": {
                "type": "Point",
                "coordinates": [
                    12.566577,
                    55.682767
                ]
            },
            "properties": {
                "title": "AhlefeldsZone",
                "count": 1
            }
        },
        {
            "type": "Feature",
            "geometry": {
                "type": "Point",
                "coordinates": [
                    12.590911,
                    55.699362
                ]
            },
            "properties": {
                "title": "KollegiumZone",
                "count": 1
            }
        },
        {
            "type": "Feature",
            "geometry": {
                "type": "Point",
                "coordinates": [
                    16.553498,
                    59.619494
                ]
            },
            "properties": {
                "title": "GunpowderZone",
                "count": 1
            }
        },
        {
            "type": "Feature",
            "geometry": {
                "type": "Point",
                "coordinates": [
                    16.596453,
                    59.620747
                ]
            },
            "properties": {
                "title": "SplitLiveZone",
                "count": 1
            }
        },
        {
            "type": "Feature",
            "geometry": {
                "type": "Point",
                "coordinates": [
                    16.76958,
                    60.621465
                ]
            },
            "properties": {
                "title": "DoubleTrouble",
                "count": 1
            }
        },
        {
            "type": "Feature",
            "geometry": {
                "type": "Point",
                "coordinates": [
                    14.532757,
                    61.005053
                ]
            },
            "properties": {
                "title": "Mill\u00e5kerZone",
                "count": 1
            }
        },
        {
            "type": "Feature",
            "geometry": {
                "type": "Point",
                "coordinates": [
                    14.934572,
                    60.763112
                ]
            },
            "properties": {
                "title": "Sundsn\u00e4sPaus",
                "count": 1
            }
        },
        {
            "type": "Feature",
            "geometry": {
                "type": "Point",
                "coordinates": [
                    18.027324,
                    59.33775
                ]
            },
            "properties": {
                "title": "BrantaTrappan",
                "count": 1
            }
        },
        {
            "type": "Feature",
            "geometry": {
                "type": "Point",
                "coordinates": [
                    18.132048,
                    59.329661
                ]
            },
            "properties": {
                "title": "ManillaBridge",
                "count": 1
            }
        },
        {
            "type": "Feature",
            "geometry": {
                "type": "Point",
                "coordinates": [
                    16.598002,
                    59.615406
                ]
            },
            "properties": {
                "title": "BugPlayground",
                "count": 1
            }
        },
        {
            "type": "Feature",
            "geometry": {
                "type": "Point",
                "coordinates": [
                    16.527173,
                    59.633475
                ]
            },
            "properties": {
                "title": "HillClimbZone",
                "count": 1
            }
        },
        {
            "type": "Feature",
            "geometry": {
                "type": "Point",
                "coordinates": [
                    16.531759,
                    59.603138
                ]
            },
            "properties": {
                "title": "OldTennisZone",
                "count": 1
            }
        },
        {
            "type": "Feature",
            "geometry": {
                "type": "Point",
                "coordinates": [
                    17.130024,
                    60.670112
                ]
            },
            "properties": {
                "title": "PentaCrossing",
                "count": 1
            }
        },
        {
            "type": "Feature",
            "geometry": {
                "type": "Point",
                "coordinates": [
                    16.595371,
                    59.626174
                ]
            },
            "properties": {
                "title": "MalmabergZone",
                "count": 1
            }
        },
        {
            "type": "Feature",
            "geometry": {
                "type": "Point",
                "coordinates": [
                    16.609396,
                    59.606332
                ]
            },
            "properties": {
                "title": "PinecroftZone",
                "count": 1
            }
        },
        {
            "type": "Feature",
            "geometry": {
                "type": "Point",
                "coordinates": [
                    17.416676,
                    60.626237
                ]
            },
            "properties": {
                "title": "Blomsterkulle",
                "count": 1
            }
        },
        {
            "type": "Feature",
            "geometry": {
                "type": "Point",
                "coordinates": [
                    15.137728,
                    59.218187
                ]
            },
            "properties": {
                "title": "MariebergShop",
                "count": 1
            }
        },
        {
            "type": "Feature",
            "geometry": {
                "type": "Point",
                "coordinates": [
                    16.616563,
                    59.623642
                ]
            },
            "properties": {
                "title": "KingsheapZone",
                "count": 1
            }
        },
        {
            "type": "Feature",
            "geometry": {
                "type": "Point",
                "coordinates": [
                    18.010151,
                    59.304149
                ]
            },
            "properties": {
                "title": "JordenAnropar",
                "count": 1
            }
        },
        {
            "type": "Feature",
            "geometry": {
                "type": "Point",
                "coordinates": [
                    18.009851,
                    59.27896
                ]
            },
            "properties": {
                "title": "Riverlakecity",
                "count": 1
            }
        },
        {
            "type": "Feature",
            "geometry": {
                "type": "Point",
                "coordinates": [
                    16.592699,
                    59.60939
                ]
            },
            "properties": {
                "title": "InfantryCross",
                "count": 1
            }
        },
        {
            "type": "Feature",
            "geometry": {
                "type": "Point",
                "coordinates": [
                    16.602485,
                    59.607628
                ]
            },
            "properties": {
                "title": "PinecroftPath",
                "count": 1
            }
        },
        {
            "type": "Feature",
            "geometry": {
                "type": "Point",
                "coordinates": [
                    18.056427,
                    59.320936
                ]
            },
            "properties": {
                "title": "TorkelsH\u00f6rna",
                "count": 1
            }
        },
        {
            "type": "Feature",
            "geometry": {
                "type": "Point",
                "coordinates": [
                    17.060605,
                    59.655384
                ]
            },
            "properties": {
                "title": "FagraGl\u00e4ntan",
                "count": 1
            }
        },
        {
            "type": "Feature",
            "geometry": {
                "type": "Point",
                "coordinates": [
                    16.940539,
                    59.629569
                ]
            },
            "properties": {
                "title": "Hummelstaborg",
                "count": 1
            }
        },
        {
            "type": "Feature",
            "geometry": {
                "type": "Point",
                "coordinates": [
                    12.576524,
                    55.681811
                ]
            },
            "properties": {
                "title": "ModRundeTaarn",
                "count": 1
            }
        },
        {
            "type": "Feature",
            "geometry": {
                "type": "Point",
                "coordinates": [
                    17.978431,
                    59.35994
                ]
            },
            "properties": {
                "title": "SolnaBusiness",
                "count": 1
            }
        },
        {
            "type": "Feature",
            "geometry": {
                "type": "Point",
                "coordinates": [
                    12.559998,
                    55.681624
                ]
            },
            "properties": {
                "title": "S\u00f8pavillonen",
                "count": 1
            }
        },
        {
            "type": "Feature",
            "geometry": {
                "type": "Point",
                "coordinates": [
                    12.591585,
                    55.695324
                ]
            },
            "properties": {
                "title": "Langeliniebro",
                "count": 1
            }
        },
        {
            "type": "Feature",
            "geometry": {
                "type": "Point",
                "coordinates": [
                    12.594732,
                    55.679496
                ]
            },
            "properties": {
                "title": "Skuespilhuset",
                "count": 1
            }
        },
        {
            "type": "Feature",
            "geometry": {
                "type": "Point",
                "coordinates": [
                    12.583995,
                    55.671144
                ]
            },
            "properties": {
                "title": "ApplebysPlads",
                "count": 1
            }
        },
        {
            "type": "Feature",
            "geometry": {
                "type": "Point",
                "coordinates": [
                    18.009285,
                    59.281722
                ]
            },
            "properties": {
                "title": "Pr\u00e4staparken",
                "count": 1
            }
        },
        {
            "type": "Feature",
            "geometry": {
                "type": "Point",
                "coordinates": [
                    18.05126,
                    59.314647
                ]
            },
            "properties": {
                "title": "S\u00f6dersZinken",
                "count": 1
            }
        },
        {
            "type": "Feature",
            "geometry": {
                "type": "Point",
                "coordinates": [
                    16.547517,
                    59.61766
                ]
            },
            "properties": {
                "title": "Katrinelunden",
                "count": 1
            }
        },
        {
            "type": "Feature",
            "geometry": {
                "type": "Point",
                "coordinates": [
                    13.825885,
                    58.693354
                ]
            },
            "properties": {
                "title": "LillLillTidan",
                "count": 1
            }
        },
        {
            "type": "Feature",
            "geometry": {
                "type": "Point",
                "coordinates": [
                    16.761213,
                    60.604164
                ]
            },
            "properties": {
                "title": "Lill\u00e4ngsTule",
                "count": 1
            }
        },
        {
            "type": "Feature",
            "geometry": {
                "type": "Point",
                "coordinates": [
                    15.117206,
                    60.886943
                ]
            },
            "properties": {
                "title": "Stiernh\u00f6\u00f6ks",
                "count": 1
            }
        },
        {
            "type": "Feature",
            "geometry": {
                "type": "Point",
                "coordinates": [
                    18.134065,
                    59.333795
                ]
            },
            "properties": {
                "title": "Kakn\u00e4splaner",
                "count": 1
            }
        },
        {
            "type": "Feature",
            "geometry": {
                "type": "Point",
                "coordinates": [
                    18.129421,
                    59.337824
                ]
            },
            "properties": {
                "title": "Lindarkn\u00f6sen",
                "count": 1
            }
        },
        {
            "type": "Feature",
            "geometry": {
                "type": "Point",
                "coordinates": [
                    18.109958,
                    59.342709
                ]
            },
            "properties": {
                "title": "Kampementsbad",
                "count": 1
            }
        },
        {
            "type": "Feature",
            "geometry": {
                "type": "Point",
                "coordinates": [
                    17.050989,
                    59.603054
                ]
            },
            "properties": {
                "title": "Fj\u00e4rilVingad",
                "count": 1
            }
        },
        {
            "type": "Feature",
            "geometry": {
                "type": "Point",
                "coordinates": [
                    17.132875,
                    60.673578
                ]
            },
            "properties": {
                "title": "Milles\u00c4nglar",
                "count": 1
            }
        },
        {
            "type": "Feature",
            "geometry": {
                "type": "Point",
                "coordinates": [
                    16.604457,
                    59.619633
                ]
            },
            "properties": {
                "title": "KollaNorrsken",
                "count": 1
            }
        },
        {
            "type": "Feature",
            "geometry": {
                "type": "Point",
                "coordinates": [
                    12.015921,
                    57.65381
                ]
            },
            "properties": {
                "title": "KonkavtHotell",
                "count": 1
            }
        },
        {
            "type": "Feature",
            "geometry": {
                "type": "Point",
                "coordinates": [
                    17.521499,
                    59.576641
                ]
            },
            "properties": {
                "title": "MmViolPastill",
                "count": 1
            }
        },
        {
            "type": "Feature",
            "geometry": {
                "type": "Point",
                "coordinates": [
                    17.9905,
                    59.347743
                ]
            },
            "properties": {
                "title": "HuvudstaAll\u00e9",
                "count": 1
            }
        },
        {
            "type": "Feature",
            "geometry": {
                "type": "Point",
                "coordinates": [
                    18.021569,
                    59.337583
                ]
            },
            "properties": {
                "title": "Stadshagsplan",
                "count": 1
            }
        },
        {
            "type": "Feature",
            "geometry": {
                "type": "Point",
                "coordinates": [
                    18.047079,
                    59.345312
                ]
            },
            "properties": {
                "title": "Enkehusparken",
                "count": 1
            }
        },
        {
            "type": "Feature",
            "geometry": {
                "type": "Point",
                "coordinates": [
                    16.988682,
                    59.633022
                ]
            },
            "properties": {
                "title": "TillingeKyrka",
                "count": 1
            }
        },
        {
            "type": "Feature",
            "geometry": {
                "type": "Point",
                "coordinates": [
                    16.581194,
                    59.611189
                ]
            },
            "properties": {
                "title": "VidEnStor\u00e4ng",
                "count": 1
            }
        },
        {
            "type": "Feature",
            "geometry": {
                "type": "Point",
                "coordinates": [
                    12.562739,
                    55.663191
                ]
            },
            "properties": {
                "title": "HappyFGuldbro",
                "count": 1
            }
        },
        {
            "type": "Feature",
            "geometry": {
                "type": "Point",
                "coordinates": [
                    16.534089,
                    59.604773
                ]
            },
            "properties": {
                "title": "Gustavsbacken",
                "count": 1
            }
        },
        {
            "type": "Feature",
            "geometry": {
                "type": "Point",
                "coordinates": [
                    18.069729,
                    59.321211
                ]
            },
            "properties": {
                "title": "Sj\u00f6bergsplan",
                "count": 1
            }
        },
        {
            "type": "Feature",
            "geometry": {
                "type": "Point",
                "coordinates": [
                    18.076831,
                    59.307973
                ]
            },
            "properties": {
                "title": "RealSkanstull",
                "count": 1
            }
        },
        {
            "type": "Feature",
            "geometry": {
                "type": "Point",
                "coordinates": [
                    17.000417,
                    59.588151
                ]
            },
            "properties": {
                "title": "SvinnegarnsKy",
                "count": 1
            }
        },
        {
            "type": "Feature",
            "geometry": {
                "type": "Point",
                "coordinates": [
                    18.118604,
                    59.270489
                ]
            },
            "properties": {
                "title": "StealThatBase",
                "count": 1
            }
        },
        {
            "type": "Feature",
            "geometry": {
                "type": "Point",
                "coordinates": [
                    18.056313,
                    59.351866
                ]
            },
            "properties": {
                "title": "BattleOfRoses",
                "count": 1
            }
        },
        {
            "type": "Feature",
            "geometry": {
                "type": "Point",
                "coordinates": [
                    15.081201,
                    60.598782
                ]
            },
            "properties": {
                "title": "GagnefStation",
                "count": 1
            }
        },
        {
            "type": "Feature",
            "geometry": {
                "type": "Point",
                "coordinates": [
                    17.127211,
                    59.649956
                ]
            },
            "properties": {
                "title": "Kolonitunneln",
                "count": 1
            }
        },
        {
            "type": "Feature",
            "geometry": {
                "type": "Point",
                "coordinates": [
                    18.119963,
                    59.336432
                ]
            },
            "properties": {
                "title": "GrevensDunge",
                "count": 1
            }
        },
        {
            "type": "Feature",
            "geometry": {
                "type": "Point",
                "coordinates": [
                    18.041788,
                    59.354303
                ]
            },
            "properties": {
                "title": "HagaparkZone",
                "count": 1
            }
        },
        {
            "type": "Feature",
            "geometry": {
                "type": "Point",
                "coordinates": [
                    18.022931,
                    59.329541
                ]
            },
            "properties": {
                "title": "R\u00e5lambsZone",
                "count": 1
            }
        },
        {
            "type": "Feature",
            "geometry": {
                "type": "Point",
                "coordinates": [
                    17.898811,
                    59.520201
                ]
            },
            "properties": {
                "title": "TammsT\u00e5gbro",
                "count": 1
            }
        },
        {
            "type": "Feature",
            "geometry": {
                "type": "Point",
                "coordinates": [
                    17.973744,
                    59.354478
                ]
            },
            "properties": {
                "title": "SolnaStrandT",
                "count": 1
            }
        },
        {
            "type": "Feature",
            "geometry": {
                "type": "Point",
                "coordinates": [
                    12.599034,
                    55.692831
                ]
            },
            "properties": {
                "title": "LilleHavfrue",
                "count": 1
            }
        },
        {
            "type": "Feature",
            "geometry": {
                "type": "Point",
                "coordinates": [
                    12.581927,
                    55.678956
                ]
            },
            "properties": {
                "title": "NikolajPlads",
                "count": 1
            }
        },
        {
            "type": "Feature",
            "geometry": {
                "type": "Point",
                "coordinates": [
                    12.581623,
                    55.672889
                ]
            },
            "properties": {
                "title": "S\u00f8rensPlads",
                "count": 1
            }
        },
        {
            "type": "Feature",
            "geometry": {
                "type": "Point",
                "coordinates": [
                    17.893046,
                    59.345882
                ]
            },
            "properties": {
                "title": "Islandsquare",
                "count": 1
            }
        },
        {
            "type": "Feature",
            "geometry": {
                "type": "Point",
                "coordinates": [
                    16.576888,
                    59.611778
                ]
            },
            "properties": {
                "title": "RegementZone",
                "count": 1
            }
        },
        {
            "type": "Feature",
            "geometry": {
                "type": "Point",
                "coordinates": [
                    16.55059,
                    59.633921
                ]
            },
            "properties": {
                "title": "NorthVillage",
                "count": 1
            }
        },
        {
            "type": "Feature",
            "geometry": {
                "type": "Point",
                "coordinates": [
                    16.58737,
                    59.638532
                ]
            },
            "properties": {
                "title": "RoboticsZone",
                "count": 1
            }
        },
        {
            "type": "Feature",
            "geometry": {
                "type": "Point",
                "coordinates": [
                    16.60549,
                    59.628381
                ]
            },
            "properties": {
                "title": "StoneChamber",
                "count": 1
            }
        },
        {
            "type": "Feature",
            "geometry": {
                "type": "Point",
                "coordinates": [
                    16.621778,
                    59.625242
                ]
            },
            "properties": {
                "title": "StoneageZone",
                "count": 1
            }
        },
        {
            "type": "Feature",
            "geometry": {
                "type": "Point",
                "coordinates": [
                    16.565732,
                    59.618289
                ]
            },
            "properties": {
                "title": "TurnpikeZone",
                "count": 1
            }
        },
        {
            "type": "Feature",
            "geometry": {
                "type": "Point",
                "coordinates": [
                    18.020524,
                    59.334496
                ]
            },
            "properties": {
                "title": "SanktG\u00f6rans",
                "count": 1
            }
        },
        {
            "type": "Feature",
            "geometry": {
                "type": "Point",
                "coordinates": [
                    16.683521,
                    59.603638
                ]
            },
            "properties": {
                "title": "HaveMothZone",
                "count": 1
            }
        },
        {
            "type": "Feature",
            "geometry": {
                "type": "Point",
                "coordinates": [
                    17.218533,
                    59.258903
                ]
            },
            "properties": {
                "title": "Gammelt\u00e5get",
                "count": 1
            }
        },
        {
            "type": "Feature",
            "geometry": {
                "type": "Point",
                "coordinates": [
                    16.527663,
                    59.601558
                ]
            },
            "properties": {
                "title": "BonanzaWoods",
                "count": 1
            }
        },
        {
            "type": "Feature",
            "geometry": {
                "type": "Point",
                "coordinates": [
                    12.589883,
                    55.684884
                ]
            },
            "properties": {
                "title": "MarmorKirken",
                "count": 1
            }
        },
        {
            "type": "Feature",
            "geometry": {
                "type": "Point",
                "coordinates": [
                    16.556781,
                    59.637353
                ]
            },
            "properties": {
                "title": "IsolatorZone",
                "count": 1
            }
        },
        {
            "type": "Feature",
            "geometry": {
                "type": "Point",
                "coordinates": [
                    16.574294,
                    59.635611
                ]
            },
            "properties": {
                "title": "TerminalPath",
                "count": 1
            }
        },
        {
            "type": "Feature",
            "geometry": {
                "type": "Point",
                "coordinates": [
                    18.067521,
                    59.321357
                ]
            },
            "properties": {
                "title": "CentralbronS",
                "count": 1
            }
        },
        {
            "type": "Feature",
            "geometry": {
                "type": "Point",
                "coordinates": [
                    18.050597,
                    59.344698
                ]
            },
            "properties": {
                "title": "SlayingHorse",
                "count": 1
            }
        },
        {
            "type": "Feature",
            "geometry": {
                "type": "Point",
                "coordinates": [
                    16.095405,
                    61.827055
                ]
            },
            "properties": {
                "title": "LightStation",
                "count": 1
            }
        },
        {
            "type": "Feature",
            "geometry": {
                "type": "Point",
                "coordinates": [
                    16.593485,
                    59.614327
                ]
            },
            "properties": {
                "title": "OakStockRoad",
                "count": 1
            }
        },
        {
            "type": "Feature",
            "geometry": {
                "type": "Point",
                "coordinates": [
                    16.685856,
                    59.610562
                ]
            },
            "properties": {
                "title": "Midg\u00e5rdZone",
                "count": 1
            }
        },
        {
            "type": "Feature",
            "geometry": {
                "type": "Point",
                "coordinates": [
                    17.99598,
                    59.348464
                ]
            },
            "properties": {
                "title": "Truppskallen",
                "count": 1
            }
        },
        {
            "type": "Feature",
            "geometry": {
                "type": "Point",
                "coordinates": [
                    17.94409,
                    59.36205
                ]
            },
            "properties": {
                "title": "Pulkah\u00f6jden",
                "count": 1
            }
        },
        {
            "type": "Feature",
            "geometry": {
                "type": "Point",
                "coordinates": [
                    15.056244,
                    60.589954
                ]
            },
            "properties": {
                "title": "GangnefKyrka",
                "count": 1
            }
        },
        {
            "type": "Feature",
            "geometry": {
                "type": "Point",
                "coordinates": [
                    16.596936,
                    59.631084
                ]
            },
            "properties": {
                "title": "TillFredholm",
                "count": 1
            }
        },
        {
            "type": "Feature",
            "geometry": {
                "type": "Point",
                "coordinates": [
                    16.58343,
                    59.637704
                ]
            },
            "properties": {
                "title": "EnterTheMine",
                "count": 1
            }
        },
        {
            "type": "Feature",
            "geometry": {
                "type": "Point",
                "coordinates": [
                    13.825141,
                    58.711112
                ]
            },
            "properties": {
                "title": "PfalzStation",
                "count": 1
            }
        },
        {
            "type": "Feature",
            "geometry": {
                "type": "Point",
                "coordinates": [
                    16.569938,
                    59.611974
                ]
            },
            "properties": {
                "title": "SkarpaSvaret",
                "count": 1
            }
        },
        {
            "type": "Feature",
            "geometry": {
                "type": "Point",
                "coordinates": [
                    16.596306,
                    59.91651
                ]
            },
            "properties": {
                "title": "SalaRockstar",
                "count": 1
            }
        },
        {
            "type": "Feature",
            "geometry": {
                "type": "Point",
                "coordinates": [
                    19.045397,
                    47.518787
                ]
            },
            "properties": {
                "title": "Margitsziget",
                "count": 1
            }
        },
        {
            "type": "Feature",
            "geometry": {
                "type": "Point",
                "coordinates": [
                    16.598412,
                    59.608643
                ]
            },
            "properties": {
                "title": "EastInfantry",
                "count": 1
            }
        },
        {
            "type": "Feature",
            "geometry": {
                "type": "Point",
                "coordinates": [
                    17.522479,
                    59.573978
                ]
            },
            "properties": {
                "title": "S\u00f6draUllevi",
                "count": 1
            }
        },
        {
            "type": "Feature",
            "geometry": {
                "type": "Point",
                "coordinates": [
                    16.937323,
                    59.626367
                ]
            },
            "properties": {
                "title": "R\u00e5\u00c4lgdunge",
                "count": 1
            }
        },
        {
            "type": "Feature",
            "geometry": {
                "type": "Point",
                "coordinates": [
                    16.618668,
                    59.606666
                ]
            },
            "properties": {
                "title": "Koloniorakan",
                "count": 1
            }
        },
        {
            "type": "Feature",
            "geometry": {
                "type": "Point",
                "coordinates": [
                    12.578481,
                    55.688058
                ]
            },
            "properties": {
                "title": "StatensKunst",
                "count": 1
            }
        },
        {
            "type": "Feature",
            "geometry": {
                "type": "Point",
                "coordinates": [
                    12.647245,
                    55.629808
                ]
            },
            "properties": {
                "title": "KastrupPlaza",
                "count": 1
            }
        },
        {
            "type": "Feature",
            "geometry": {
                "type": "Point",
                "coordinates": [
                    12.565673,
                    55.678788
                ]
            },
            "properties": {
                "title": "JarmersT\u00e5rn",
                "count": 1
            }
        },
        {
            "type": "Feature",
            "geometry": {
                "type": "Point",
                "coordinates": [
                    12.588995,
                    55.697883
                ]
            },
            "properties": {
                "title": "ClassensHave",
                "count": 1
            }
        },
        {
            "type": "Feature",
            "geometry": {
                "type": "Point",
                "coordinates": [
                    12.579951,
                    55.678043
                ]
            },
            "properties": {
                "title": "H\u00f8jbroPlads",
                "count": 1
            }
        },
        {
            "type": "Feature",
            "geometry": {
                "type": "Point",
                "coordinates": [
                    13.222831,
                    55.696905
                ]
            },
            "properties": {
                "title": "Comvuxcorner",
                "count": 1
            }
        },
        {
            "type": "Feature",
            "geometry": {
                "type": "Point",
                "coordinates": [
                    18.099333,
                    59.327316
                ]
            },
            "properties": {
                "title": "Hazeliusport",
                "count": 1
            }
        },
        {
            "type": "Feature",
            "geometry": {
                "type": "Point",
                "coordinates": [
                    13.83183,
                    58.704463
                ]
            },
            "properties": {
                "title": "Fredriksberg",
                "count": 1
            }
        },
        {
            "type": "Feature",
            "geometry": {
                "type": "Point",
                "coordinates": [
                    14.551617,
                    61.009814
                ]
            },
            "properties": {
                "title": "\u00c4lvenMumlar",
                "count": 1
            }
        },
        {
            "type": "Feature",
            "geometry": {
                "type": "Point",
                "coordinates": [
                    16.761512,
                    60.614947
                ]
            },
            "properties": {
                "title": "Vattentornet",
                "count": 1
            }
        },
        {
            "type": "Feature",
            "geometry": {
                "type": "Point",
                "coordinates": [
                    18.120262,
                    59.339718
                ]
            },
            "properties": {
                "title": "Lindar\u00e4ngen",
                "count": 1
            }
        },
        {
            "type": "Feature",
            "geometry": {
                "type": "Point",
                "coordinates": [
                    16.109282,
                    61.826099
                ]
            },
            "properties": {
                "title": "Silvergranar",
                "count": 1
            }
        },
        {
            "type": "Feature",
            "geometry": {
                "type": "Point",
                "coordinates": [
                    17.142726,
                    60.67019
                ]
            },
            "properties": {
                "title": "StapleSquare",
                "count": 1
            }
        },
        {
            "type": "Feature",
            "geometry": {
                "type": "Point",
                "coordinates": [
                    16.562475,
                    59.644353
                ]
            },
            "properties": {
                "title": "OverHeadZone",
                "count": 1
            }
        },
        {
            "type": "Feature",
            "geometry": {
                "type": "Point",
                "coordinates": [
                    13.811634,
                    58.694248
                ]
            },
            "properties": {
                "title": "LeksbergZone",
                "count": 1
            }
        },
        {
            "type": "Feature",
            "geometry": {
                "type": "Point",
                "coordinates": [
                    17.235293,
                    59.628781
                ]
            },
            "properties": {
                "title": "HouseOfPower",
                "count": 1
            }
        },
        {
            "type": "Feature",
            "geometry": {
                "type": "Point",
                "coordinates": [
                    17.133634,
                    59.625894
                ]
            },
            "properties": {
                "title": "BilturfaThis",
                "count": 1
            }
        },
        {
            "type": "Feature",
            "geometry": {
                "type": "Point",
                "coordinates": [
                    16.924169,
                    59.776074
                ]
            },
            "properties": {
                "title": "Fj\u00e4rdhundra",
                "count": 1
            }
        },
        {
            "type": "Feature",
            "geometry": {
                "type": "Point",
                "coordinates": [
                    16.553244,
                    59.617022
                ]
            },
            "properties": {
                "title": "Kopparmetall",
                "count": 1
            }
        },
        {
            "type": "Feature",
            "geometry": {
                "type": "Point",
                "coordinates": [
                    17.832855,
                    59.424003
                ]
            },
            "properties": {
                "title": "JakanPerrong",
                "count": 1
            }
        },
        {
            "type": "Feature",
            "geometry": {
                "type": "Point",
                "coordinates": [
                    12.5838,
                    55.67241
                ]
            },
            "properties": {
                "title": "KPDbrocirkel",
                "count": 1
            }
        },
        {
            "type": "Feature",
            "geometry": {
                "type": "Point",
                "coordinates": [
                    16.248535,
                    59.591338
                ]
            },
            "properties": {
                "title": "HallstaStopp",
                "count": 1
            }
        },
        {
            "type": "Feature",
            "geometry": {
                "type": "Point",
                "coordinates": [
                    18.037359,
                    59.337601
                ]
            },
            "properties": {
                "title": "Atlast\u00e4ppan",
                "count": 1
            }
        },
        {
            "type": "Feature",
            "geometry": {
                "type": "Point",
                "coordinates": [
                    18.079639,
                    59.348879
                ]
            },
            "properties": {
                "title": "Tr\u00e4skporten",
                "count": 1
            }
        },
        {
            "type": "Feature",
            "geometry": {
                "type": "Point",
                "coordinates": [
                    14.535478,
                    61.006648
                ]
            },
            "properties": {
                "title": "CowSnapAlley",
                "count": 1
            }
        },
        {
            "type": "Feature",
            "geometry": {
                "type": "Point",
                "coordinates": [
                    14.621559,
                    58.98085
                ]
            },
            "properties": {
                "title": "Tivedsmalmen",
                "count": 1
            }
        },
        {
            "type": "Feature",
            "geometry": {
                "type": "Point",
                "coordinates": [
                    18.086568,
                    59.331651
                ]
            },
            "properties": {
                "title": "SpatseraMera",
                "count": 1
            }
        },
        {
            "type": "Feature",
            "geometry": {
                "type": "Point",
                "coordinates": [
                    15.587294,
                    58.432762
                ]
            },
            "properties": {
                "title": "KampradZone",
                "count": 1
            }
        },
        {
            "type": "Feature",
            "geometry": {
                "type": "Point",
                "coordinates": [
                    18.090762,
                    59.322328
                ]
            },
            "properties": {
                "title": "KastellBerg",
                "count": 1
            }
        },
        {
            "type": "Feature",
            "geometry": {
                "type": "Point",
                "coordinates": [
                    18.016921,
                    59.336801
                ]
            },
            "properties": {
                "title": "StadshagenT",
                "count": 1
            }
        },
        {
            "type": "Feature",
            "geometry": {
                "type": "Point",
                "coordinates": [
                    16.539036,
                    59.64226
                ]
            },
            "properties": {
                "title": "DogDeerZone",
                "count": 1
            }
        },
        {
            "type": "Feature",
            "geometry": {
                "type": "Point",
                "coordinates": [
                    16.575237,
                    59.626345
                ]
            },
            "properties": {
                "title": "VasHagaZone",
                "count": 1
            }
        },
        {
            "type": "Feature",
            "geometry": {
                "type": "Point",
                "coordinates": [
                    16.545748,
                    59.650226
                ]
            },
            "properties": {
                "title": "NorthCattle",
                "count": 1
            }
        },
        {
            "type": "Feature",
            "geometry": {
                "type": "Point",
                "coordinates": [
                    18.075454,
                    59.350211
                ]
            },
            "properties": {
                "title": "Presentzone",
                "count": 1
            }
        },
        {
            "type": "Feature",
            "geometry": {
                "type": "Point",
                "coordinates": [
                    13.822055,
                    58.404159
                ]
            },
            "properties": {
                "title": "LukasChurch",
                "count": 1
            }
        },
        {
            "type": "Feature",
            "geometry": {
                "type": "Point",
                "coordinates": [
                    12.593204,
                    55.68401
                ]
            },
            "properties": {
                "title": "CastlePlads",
                "count": 1
            }
        },
        {
            "type": "Feature",
            "geometry": {
                "type": "Point",
                "coordinates": [
                    17.899298,
                    59.383067
                ]
            },
            "properties": {
                "title": "Sp\u00e5ngazone",
                "count": 1
            }
        },
        {
            "type": "Feature",
            "geometry": {
                "type": "Point",
                "coordinates": [
                    16.76591,
                    60.619816
                ]
            },
            "properties": {
                "title": "Stadsparken",
                "count": 1
            }
        },
        {
            "type": "Feature",
            "geometry": {
                "type": "Point",
                "coordinates": [
                    13.224817,
                    55.693836
                ]
            },
            "properties": {
                "title": "Glimmerzone",
                "count": 1
            }
        },
        {
            "type": "Feature",
            "geometry": {
                "type": "Point",
                "coordinates": [
                    17.639154,
                    59.858627
                ]
            },
            "properties": {
                "title": "BigTorgZone",
                "count": 1
            }
        },
        {
            "type": "Feature",
            "geometry": {
                "type": "Point",
                "coordinates": [
                    15.842144,
                    57.67409
                ]
            },
            "properties": {
                "title": "AstridWorld",
                "count": 1
            }
        },
        {
            "type": "Feature",
            "geometry": {
                "type": "Point",
                "coordinates": [
                    15.434763,
                    60.479111
                ]
            },
            "properties": {
                "title": "VillagePark",
                "count": 1
            }
        },
        {
            "type": "Feature",
            "geometry": {
                "type": "Point",
                "coordinates": [
                    15.411041,
                    60.491594
                ]
            },
            "properties": {
                "title": "BringATowel",
                "count": 1
            }
        },
        {
            "type": "Feature",
            "geometry": {
                "type": "Point",
                "coordinates": [
                    17.133515,
                    60.672514
                ]
            },
            "properties": {
                "title": "ConcertZone",
                "count": 1
            }
        },
        {
            "type": "Feature",
            "geometry": {
                "type": "Point",
                "coordinates": [
                    13.822742,
                    58.407494
                ]
            },
            "properties": {
                "title": "ViewSk\u00f6vde",
                "count": 1
            }
        },
        {
            "type": "Feature",
            "geometry": {
                "type": "Point",
                "coordinates": [
                    16.553166,
                    59.609282
                ]
            },
            "properties": {
                "title": "BermudaZone",
                "count": 1
            }
        },
        {
            "type": "Feature",
            "geometry": {
                "type": "Point",
                "coordinates": [
                    16.532784,
                    59.606515
                ]
            },
            "properties": {
                "title": "JakobCorner",
                "count": 1
            }
        },
        {
            "type": "Feature",
            "geometry": {
                "type": "Point",
                "coordinates": [
                    12.571778,
                    55.671883
                ]
            },
            "properties": {
                "title": "Glyptoteket",
                "count": 1
            }
        },
        {
            "type": "Feature",
            "geometry": {
                "type": "Point",
                "coordinates": [
                    12.558986,
                    55.665185
                ]
            },
            "properties": {
                "title": "Dybb\u00f8lsbro",
                "count": 1
            }
        },
        {
            "type": "Feature",
            "geometry": {
                "type": "Point",
                "coordinates": [
                    12.594614,
                    55.688189
                ]
            },
            "properties": {
                "title": "KastelWoods",
                "count": 1
            }
        },
        {
            "type": "Feature",
            "geometry": {
                "type": "Point",
                "coordinates": [
                    16.546985,
                    59.606745
                ]
            },
            "properties": {
                "title": "SunYourZone",
                "count": 1
            }
        },
        {
            "type": "Feature",
            "geometry": {
                "type": "Point",
                "coordinates": [
                    15.981637,
                    60.27424
                ]
            },
            "properties": {
                "title": "HedeStation",
                "count": 1
            }
        },
        {
            "type": "Feature",
            "geometry": {
                "type": "Point",
                "coordinates": [
                    17.898761,
                    59.347052
                ]
            },
            "properties": {
                "title": "Stora\u00c4ngby",
                "count": 1
            }
        },
        {
            "type": "Feature",
            "geometry": {
                "type": "Point",
                "coordinates": [
                    17.98506,
                    59.348372
                ]
            },
            "properties": {
                "title": "HuvudstaTop",
                "count": 1
            }
        },
        {
            "type": "Feature",
            "geometry": {
                "type": "Point",
                "coordinates": [
                    15.990066,
                    60.27695
                ]
            },
            "properties": {
                "title": "Hursahallen",
                "count": 1
            }
        },
        {
            "type": "Feature",
            "geometry": {
                "type": "Point",
                "coordinates": [
                    16.538328,
                    59.649013
                ]
            },
            "properties": {
                "title": "DaggrosZone",
                "count": 1
            }
        },
        {
            "type": "Feature",
            "geometry": {
                "type": "Point",
                "coordinates": [
                    16.572283,
                    59.61658
                ]
            },
            "properties": {
                "title": "PalmeSquare",
                "count": 1
            }
        },
        {
            "type": "Feature",
            "geometry": {
                "type": "Point",
                "coordinates": [
                    14.556862,
                    61.009058
                ]
            },
            "properties": {
                "title": "MoraStation",
                "count": 1
            }
        },
        {
            "type": "Feature",
            "geometry": {
                "type": "Point",
                "coordinates": [
                    16.604208,
                    59.922325
                ]
            },
            "properties": {
                "title": "KingsCorner",
                "count": 1
            }
        },
        {
            "type": "Feature",
            "geometry": {
                "type": "Point",
                "coordinates": [
                    18.018255,
                    59.349987
                ]
            },
            "properties": {
                "title": "Granitbanan",
                "count": 1
            }
        },
        {
            "type": "Feature",
            "geometry": {
                "type": "Point",
                "coordinates": [
                    15.74672,
                    60.345157
                ]
            },
            "properties": {
                "title": "S\u00e4terKyrka",
                "count": 1
            }
        },
        {
            "type": "Feature",
            "geometry": {
                "type": "Point",
                "coordinates": [
                    16.527312,
                    59.595418
                ]
            },
            "properties": {
                "title": "CisternZone",
                "count": 1
            }
        },
        {
            "type": "Feature",
            "geometry": {
                "type": "Point",
                "coordinates": [
                    17.40563,
                    60.623576
                ]
            },
            "properties": {
                "title": "SkutStation",
                "count": 1
            }
        },
        {
            "type": "Feature",
            "geometry": {
                "type": "Point",
                "coordinates": [
                    12.124553,
                    57.741727
                ]
            },
            "properties": {
                "title": "S\u00e4veDonkey",
                "count": 1
            }
        },
        {
            "type": "Feature",
            "geometry": {
                "type": "Point",
                "coordinates": [
                    11.992718,
                    57.691949
                ]
            },
            "properties": {
                "title": "LisebergSyd",
                "count": 1
            }
        },
        {
            "type": "Feature",
            "geometry": {
                "type": "Point",
                "coordinates": [
                    18.117698,
                    59.330106
                ]
            },
            "properties": {
                "title": "RosasBrygga",
                "count": 1
            }
        },
        {
            "type": "Feature",
            "geometry": {
                "type": "Point",
                "coordinates": [
                    17.928463,
                    59.368667
                ]
            },
            "properties": {
                "title": "Stalltipset",
                "count": 1
            }
        },
        {
            "type": "Feature",
            "geometry": {
                "type": "Point",
                "coordinates": [
                    16.617479,
                    59.628415
                ]
            },
            "properties": {
                "title": "AncientZone",
                "count": 1
            }
        },
        {
            "type": "Feature",
            "geometry": {
                "type": "Point",
                "coordinates": [
                    16.60215,
                    59.914561
                ]
            },
            "properties": {
                "title": "SouthAvenue",
                "count": 1
            }
        },
        {
            "type": "Feature",
            "geometry": {
                "type": "Point",
                "coordinates": [
                    16.951893,
                    59.627573
                ]
            },
            "properties": {
                "title": "NoMoreCandy",
                "count": 1
            }
        },
        {
            "type": "Feature",
            "geometry": {
                "type": "Point",
                "coordinates": [
                    16.761226,
                    60.616999
                ]
            },
            "properties": {
                "title": "PinePasture",
                "count": 1
            }
        },
        {
            "type": "Feature",
            "geometry": {
                "type": "Point",
                "coordinates": [
                    15.442317,
                    60.470543
                ]
            },
            "properties": {
                "title": "Gillestugan",
                "count": 1
            }
        },
        {
            "type": "Feature",
            "geometry": {
                "type": "Point",
                "coordinates": [
                    11.948028,
                    57.688596
                ]
            },
            "properties": {
                "title": "RenaSnurren",
                "count": 1
            }
        },
        {
            "type": "Feature",
            "geometry": {
                "type": "Point",
                "coordinates": [
                    16.705913,
                    59.598429
                ]
            },
            "properties": {
                "title": "IrstaChurch",
                "count": 1
            }
        },
        {
            "type": "Feature",
            "geometry": {
                "type": "Point",
                "coordinates": [
                    17.530314,
                    59.566934
                ]
            },
            "properties": {
                "title": "Jagkanflyga",
                "count": 1
            }
        },
        {
            "type": "Feature",
            "geometry": {
                "type": "Point",
                "coordinates": [
                    17.987366,
                    59.351742
                ]
            },
            "properties": {
                "title": "Knopp\u00e4ngen",
                "count": 1
            }
        },
        {
            "type": "Feature",
            "geometry": {
                "type": "Point",
                "coordinates": [
                    16.565454,
                    59.611435
                ]
            },
            "properties": {
                "title": "Bussgaraget",
                "count": 1
            }
        },
        {
            "type": "Feature",
            "geometry": {
                "type": "Point",
                "coordinates": [
                    17.526074,
                    59.568078
                ]
            },
            "properties": {
                "title": "Cykelfemman",
                "count": 1
            }
        },
        {
            "type": "Feature",
            "geometry": {
                "type": "Point",
                "coordinates": [
                    17.91136,
                    59.344049
                ]
            },
            "properties": {
                "title": "Vulteskurva",
                "count": 1
            }
        },
        {
            "type": "Feature",
            "geometry": {
                "type": "Point",
                "coordinates": [
                    18.009719,
                    59.286976
                ]
            },
            "properties": {
                "title": "Klacktorget",
                "count": 1
            }
        },
        {
            "type": "Feature",
            "geometry": {
                "type": "Point",
                "coordinates": [
                    16.522713,
                    59.600776
                ]
            },
            "properties": {
                "title": "FrankeTanka",
                "count": 1
            }
        },
        {
            "type": "Feature",
            "geometry": {
                "type": "Point",
                "coordinates": [
                    16.609007,
                    59.921788
                ]
            },
            "properties": {
                "title": "DriveInFish",
                "count": 1
            }
        },
        {
            "type": "Feature",
            "geometry": {
                "type": "Point",
                "coordinates": [
                    19.057134,
                    47.48729
                ]
            },
            "properties": {
                "title": "F\u0151v\u00e1mT\u00e9r",
                "count": 1
            }
        },
        {
            "type": "Feature",
            "geometry": {
                "type": "Point",
                "coordinates": [
                    17.05274,
                    59.655033
                ]
            },
            "properties": {
                "title": "Pepparroten",
                "count": 1
            }
        },
        {
            "type": "Feature",
            "geometry": {
                "type": "Point",
                "coordinates": [
                    16.94597,
                    59.624343
                ]
            },
            "properties": {
                "title": "Hummelskola",
                "count": 1
            }
        },
        {
            "type": "Feature",
            "geometry": {
                "type": "Point",
                "coordinates": [
                    12.571774,
                    55.683349
                ]
            },
            "properties": {
                "title": "N\u00f8rreportC",
                "count": 1
            }
        },
        {
            "type": "Feature",
            "geometry": {
                "type": "Point",
                "coordinates": [
                    12.589648,
                    55.668273
                ]
            },
            "properties": {
                "title": "Stadsgraven",
                "count": 1
            }
        },
        {
            "type": "Feature",
            "geometry": {
                "type": "Point",
                "coordinates": [
                    16.681535,
                    59.608411
                ]
            },
            "properties": {
                "title": "RagnarsR\u00f6k",
                "count": 1
            }
        },
        {
            "type": "Feature",
            "geometry": {
                "type": "Point",
                "coordinates": [
                    12.587823,
                    55.692169
                ]
            },
            "properties": {
                "title": "\u00d8sterportC",
                "count": 1
            }
        },
        {
            "type": "Feature",
            "geometry": {
                "type": "Point",
                "coordinates": [
                    12.597686,
                    55.689376
                ]
            },
            "properties": {
                "title": "GefionsVand",
                "count": 1
            }
        },
        {
            "type": "Feature",
            "geometry": {
                "type": "Point",
                "coordinates": [
                    12.595741,
                    55.684354
                ]
            },
            "properties": {
                "title": "Amaliehaven",
                "count": 1
            }
        },
        {
            "type": "Feature",
            "geometry": {
                "type": "Point",
                "coordinates": [
                    12.586793,
                    55.672588
                ]
            },
            "properties": {
                "title": "ChrisChurch",
                "count": 1
            }
        },
        {
            "type": "Feature",
            "geometry": {
                "type": "Point",
                "coordinates": [
                    17.947838,
                    59.365347
                ]
            },
            "properties": {
                "title": "Vildvittror",
                "count": 1
            }
        },
        {
            "type": "Feature",
            "geometry": {
                "type": "Point",
                "coordinates": [
                    13.821053,
                    58.717213
                ]
            },
            "properties": {
                "title": "Halv\u00e4gsUte",
                "count": 1
            }
        },
        {
            "type": "Feature",
            "geometry": {
                "type": "Point",
                "coordinates": [
                    13.820943,
                    58.719157
                ]
            },
            "properties": {
                "title": "Jaha\u00c5NuD\u00e5",
                "count": 1
            }
        },
        {
            "type": "Feature",
            "geometry": {
                "type": "Point",
                "coordinates": [
                    15.98667,
                    60.279417
                ]
            },
            "properties": {
                "title": "ApoteksPark",
                "count": 1
            }
        },
        {
            "type": "Feature",
            "geometry": {
                "type": "Point",
                "coordinates": [
                    17.150388,
                    60.674589
                ]
            },
            "properties": {
                "title": "AnkarBridge",
                "count": 1
            }
        },
        {
            "type": "Feature",
            "geometry": {
                "type": "Point",
                "coordinates": [
                    20.261085,
                    63.824066
                ]
            },
            "properties": {
                "title": "V\u00e4ven\u00c4ven",
                "count": 1
            }
        },
        {
            "type": "Feature",
            "geometry": {
                "type": "Point",
                "coordinates": [
                    16.518993,
                    59.606274
                ]
            },
            "properties": {
                "title": "Himlaspiken",
                "count": 1
            }
        },
        {
            "type": "Feature",
            "geometry": {
                "type": "Point",
                "coordinates": [
                    18.042949,
                    59.349049
                ]
            },
            "properties": {
                "title": "R\u00f6daBerget",
                "count": 1
            }
        },
        {
            "type": "Feature",
            "geometry": {
                "type": "Point",
                "coordinates": [
                    16.874305,
                    59.63785
                ]
            },
            "properties": {
                "title": "Fr\u00f6svirast",
                "count": 1
            }
        },
        {
            "type": "Feature",
            "geometry": {
                "type": "Point",
                "coordinates": [
                    18.006229,
                    59.35924
                ]
            },
            "properties": {
                "title": "SolnaFlower",
                "count": 1
            }
        },
        {
            "type": "Feature",
            "geometry": {
                "type": "Point",
                "coordinates": [
                    17.149399,
                    59.641847
                ]
            },
            "properties": {
                "title": "Wolfenstein",
                "count": 1
            }
        },
        {
            "type": "Feature",
            "geometry": {
                "type": "Point",
                "coordinates": [
                    16.627491,
                    59.914585
                ]
            },
            "properties": {
                "title": "NorrbyKyrka",
                "count": 1
            }
        },
        {
            "type": "Feature",
            "geometry": {
                "type": "Point",
                "coordinates": [
                    16.525487,
                    59.629814
                ]
            },
            "properties": {
                "title": "L\u00e5ngbollar",
                "count": 1
            }
        },
        {
            "type": "Feature",
            "geometry": {
                "type": "Point",
                "coordinates": [
                    17.984419,
                    59.357715
                ]
            },
            "properties": {
                "title": "Svetsl\u00e5gan",
                "count": 1
            }
        },
        {
            "type": "Feature",
            "geometry": {
                "type": "Point",
                "coordinates": [
                    17.088743,
                    59.614067
                ]
            },
            "properties": {
                "title": "G\u00e5nstaLong",
                "count": 1
            }
        },
        {
            "type": "Feature",
            "geometry": {
                "type": "Point",
                "coordinates": [
                    17.04896,
                    59.604857
                ]
            },
            "properties": {
                "title": "CastellHaga",
                "count": 1
            }
        },
        {
            "type": "Feature",
            "geometry": {
                "type": "Point",
                "coordinates": [
                    17.408415,
                    60.632808
                ]
            },
            "properties": {
                "title": "PeopleHouse",
                "count": 1
            }
        },
        {
            "type": "Feature",
            "geometry": {
                "type": "Point",
                "coordinates": [
                    13.023531,
                    57.7018
                ]
            },
            "properties": {
                "title": "G\u00e5nghester",
                "count": 1
            }
        },
        {
            "type": "Feature",
            "geometry": {
                "type": "Point",
                "coordinates": [
                    12.580908,
                    55.681564
                ]
            },
            "properties": {
                "title": "HitcherZone",
                "count": 1
            }
        },
        {
            "type": "Feature",
            "geometry": {
                "type": "Point",
                "coordinates": [
                    16.552968,
                    59.611426
                ]
            },
            "properties": {
                "title": "Mimertorget",
                "count": 1
            }
        },
        {
            "type": "Feature",
            "geometry": {
                "type": "Point",
                "coordinates": [
                    16.540162,
                    59.609311
                ]
            },
            "properties": {
                "title": "KlippanZone",
                "count": 1
            }
        },
        {
            "type": "Feature",
            "geometry": {
                "type": "Point",
                "coordinates": [
                    16.592617,
                    59.632732
                ]
            },
            "properties": {
                "title": "FredsEffekt",
                "count": 1
            }
        },
        {
            "type": "Feature",
            "geometry": {
                "type": "Point",
                "coordinates": [
                    16.580628,
                    59.635453
                ]
            },
            "properties": {
                "title": "Banmatsburk",
                "count": 1
            }
        },
        {
            "type": "Feature",
            "geometry": {
                "type": "Point",
                "coordinates": [
                    17.071292,
                    59.654507
                ]
            },
            "properties": {
                "title": "Fagerskogen",
                "count": 1
            }
        },
        {
            "type": "Feature",
            "geometry": {
                "type": "Point",
                "coordinates": [
                    14.539724,
                    61.0048
                ]
            },
            "properties": {
                "title": "B\u00e4lterSwen",
                "count": 1
            }
        },
        {
            "type": "Feature",
            "geometry": {
                "type": "Point",
                "coordinates": [
                    12.939549,
                    57.722493
                ]
            },
            "properties": {
                "title": "Torpakyrkan",
                "count": 1
            }
        },
        {
            "type": "Feature",
            "geometry": {
                "type": "Point",
                "coordinates": [
                    17.750524,
                    59.479299
                ]
            },
            "properties": {
                "title": "Kungs\u00e4ngen",
                "count": 1
            }
        },
        {
            "type": "Feature",
            "geometry": {
                "type": "Point",
                "coordinates": [
                    18.007677,
                    59.302459
                ]
            },
            "properties": {
                "title": "Aprildansen",
                "count": 1
            }
        },
        {
            "type": "Feature",
            "geometry": {
                "type": "Point",
                "coordinates": [
                    15.005537,
                    59.064328
                ]
            },
            "properties": {
                "title": "Br\u00e4nd\u00e5sen",
                "count": 1
            }
        },
        {
            "type": "Feature",
            "geometry": {
                "type": "Point",
                "coordinates": [
                    17.963554,
                    59.36257
                ]
            },
            "properties": {
                "title": "B\u00e4llstabro",
                "count": 1
            }
        },
        {
            "type": "Feature",
            "geometry": {
                "type": "Point",
                "coordinates": [
                    18.088606,
                    59.323314
                ]
            },
            "properties": {
                "title": "RoyalSkates",
                "count": 1
            }
        },
        {
            "type": "Feature",
            "geometry": {
                "type": "Point",
                "coordinates": [
                    18.040306,
                    59.342854
                ]
            },
            "properties": {
                "title": "AllaSnubbar",
                "count": 1
            }
        },
        {
            "type": "Feature",
            "geometry": {
                "type": "Point",
                "coordinates": [
                    17.085084,
                    59.657572
                ]
            },
            "properties": {
                "title": "\u00c5ngkrafter",
                "count": 1
            }
        },
        {
            "type": "Feature",
            "geometry": {
                "type": "Point",
                "coordinates": [
                    16.513163,
                    59.608123
                ]
            },
            "properties": {
                "title": "Polstj\u00e4rna",
                "count": 1
            }
        },
        {
            "type": "Feature",
            "geometry": {
                "type": "Point",
                "coordinates": [
                    17.96582,
                    59.361563
                ]
            },
            "properties": {
                "title": "Banangloben",
                "count": 1
            }
        },
        {
            "type": "Feature",
            "geometry": {
                "type": "Point",
                "coordinates": [
                    18.092076,
                    59.328435
                ]
            },
            "properties": {
                "title": "Vasamuseet",
                "count": 1
            }
        },
        {
            "type": "Feature",
            "geometry": {
                "type": "Point",
                "coordinates": [
                    18.076586,
                    59.325252
                ]
            },
            "properties": {
                "title": "ShipCorner",
                "count": 1
            }
        },
        {
            "type": "Feature",
            "geometry": {
                "type": "Point",
                "coordinates": [
                    18.034304,
                    59.327481
                ]
            },
            "properties": {
                "title": "Norrstrand",
                "count": 1
            }
        },
        {
            "type": "Feature",
            "geometry": {
                "type": "Point",
                "coordinates": [
                    18.035208,
                    59.331849
                ]
            },
            "properties": {
                "title": "Chronopark",
                "count": 1
            }
        },
        {
            "type": "Feature",
            "geometry": {
                "type": "Point",
                "coordinates": [
                    18.039637,
                    59.345035
                ]
            },
            "properties": {
                "title": "Vanadizone",
                "count": 1
            }
        },
        {
            "type": "Feature",
            "geometry": {
                "type": "Point",
                "coordinates": [
                    17.99822,
                    59.359378
                ]
            },
            "properties": {
                "title": "Skyttezone",
                "count": 1
            }
        },
        {
            "type": "Feature",
            "geometry": {
                "type": "Point",
                "coordinates": [
                    17.14468,
                    60.674547
                ]
            },
            "properties": {
                "title": "GeflePlaza",
                "count": 1
            }
        },
        {
            "type": "Feature",
            "geometry": {
                "type": "Point",
                "coordinates": [
                    20.267648,
                    63.829789
                ]
            },
            "properties": {
                "title": "UmeStation",
                "count": 1
            }
        },
        {
            "type": "Feature",
            "geometry": {
                "type": "Point",
                "coordinates": [
                    16.533993,
                    59.621274
                ]
            },
            "properties": {
                "title": "BlasboZone",
                "count": 1
            }
        },
        {
            "type": "Feature",
            "geometry": {
                "type": "Point",
                "coordinates": [
                    13.8231,
                    58.709411
                ]
            },
            "properties": {
                "title": "TwoNewZone",
                "count": 1
            }
        },
        {
            "type": "Feature",
            "geometry": {
                "type": "Point",
                "coordinates": [
                    13.816926,
                    58.713858
                ]
            },
            "properties": {
                "title": "MiddlePier",
                "count": 1
            }
        },
        {
            "type": "Feature",
            "geometry": {
                "type": "Point",
                "coordinates": [
                    18.126715,
                    59.334752
                ]
            },
            "properties": {
                "title": "CookieZone",
                "count": 1
            }
        },
        {
            "type": "Feature",
            "geometry": {
                "type": "Point",
                "coordinates": [
                    12.935753,
                    57.72064
                ]
            },
            "properties": {
                "title": "Livebridge",
                "count": 1
            }
        },
        {
            "type": "Feature",
            "geometry": {
                "type": "Point",
                "coordinates": [
                    18.074349,
                    59.348334
                ]
            },
            "properties": {
                "title": "Osquarzone",
                "count": 1
            }
        },
        {
            "type": "Feature",
            "geometry": {
                "type": "Point",
                "coordinates": [
                    16.544877,
                    59.6087
                ]
            },
            "properties": {
                "title": "MiddlePark",
                "count": 1
            }
        },
        {
            "type": "Feature",
            "geometry": {
                "type": "Point",
                "coordinates": [
                    16.577117,
                    59.622501
                ]
            },
            "properties": {
                "title": "ThreadZone",
                "count": 1
            }
        },
        {
            "type": "Feature",
            "geometry": {
                "type": "Point",
                "coordinates": [
                    16.600698,
                    59.617719
                ]
            },
            "properties": {
                "title": "Bj\u00f6rkZone",
                "count": 1
            }
        },
        {
            "type": "Feature",
            "geometry": {
                "type": "Point",
                "coordinates": [
                    16.39569,
                    61.34807
                ]
            },
            "properties": {
                "title": "BallSquare",
                "count": 1
            }
        },
        {
            "type": "Feature",
            "geometry": {
                "type": "Point",
                "coordinates": [
                    16.083695,
                    61.825831
                ]
            },
            "properties": {
                "title": "ChurchLake",
                "count": 1
            }
        },
        {
            "type": "Feature",
            "geometry": {
                "type": "Point",
                "coordinates": [
                    12.583344,
                    55.676768
                ]
            },
            "properties": {
                "title": "BedeT\u00e6ppe",
                "count": 1
            }
        },
        {
            "type": "Feature",
            "geometry": {
                "type": "Point",
                "coordinates": [
                    12.581811,
                    55.684691
                ]
            },
            "properties": {
                "title": "Orangeriet",
                "count": 1
            }
        },
        {
            "type": "Feature",
            "geometry": {
                "type": "Point",
                "coordinates": [
                    12.561212,
                    55.670581
                ]
            },
            "properties": {
                "title": "Halmtorvet",
                "count": 1
            }
        },
        {
            "type": "Feature",
            "geometry": {
                "type": "Point",
                "coordinates": [
                    12.572688,
                    55.667866
                ]
            },
            "properties": {
                "title": "HavneBadet",
                "count": 1
            }
        },
        {
            "type": "Feature",
            "geometry": {
                "type": "Point",
                "coordinates": [
                    12.586692,
                    55.687531
                ]
            },
            "properties": {
                "title": "PaulChurch",
                "count": 1
            }
        },
        {
            "type": "Feature",
            "geometry": {
                "type": "Point",
                "coordinates": [
                    17.158594,
                    60.675797
                ]
            },
            "properties": {
                "title": "ShipBridge",
                "count": 1
            }
        },
        {
            "type": "Feature",
            "geometry": {
                "type": "Point",
                "coordinates": [
                    16.593902,
                    59.919189
                ]
            },
            "properties": {
                "title": "MineBridge",
                "count": 1
            }
        },
        {
            "type": "Feature",
            "geometry": {
                "type": "Point",
                "coordinates": [
                    15.990127,
                    60.278592
                ]
            },
            "properties": {
                "title": "VasaGarden",
                "count": 1
            }
        },
        {
            "type": "Feature",
            "geometry": {
                "type": "Point",
                "coordinates": [
                    18.004953,
                    59.300888
                ]
            },
            "properties": {
                "title": "Tellusborg",
                "count": 1
            }
        },
        {
            "type": "Feature",
            "geometry": {
                "type": "Point",
                "coordinates": [
                    16.532793,
                    59.632244
                ]
            },
            "properties": {
                "title": "KoloniZone",
                "count": 1
            }
        },
        {
            "type": "Feature",
            "geometry": {
                "type": "Point",
                "coordinates": [
                    14.565248,
                    61.009676
                ]
            },
            "properties": {
                "title": "MoraTunnel",
                "count": 1
            }
        },
        {
            "type": "Feature",
            "geometry": {
                "type": "Point",
                "coordinates": [
                    16.856624,
                    59.939521
                ]
            },
            "properties": {
                "title": "HebyChurch",
                "count": 1
            }
        },
        {
            "type": "Feature",
            "geometry": {
                "type": "Point",
                "coordinates": [
                    18.108742,
                    59.336017
                ]
            },
            "properties": {
                "title": "Ladukorset",
                "count": 1
            }
        },
        {
            "type": "Feature",
            "geometry": {
                "type": "Point",
                "coordinates": [
                    16.590376,
                    59.627609
                ]
            },
            "properties": {
                "title": "SilverHill",
                "count": 1
            }
        },
        {
            "type": "Feature",
            "geometry": {
                "type": "Point",
                "coordinates": [
                    16.600319,
                    59.922504
                ]
            },
            "properties": {
                "title": "Footbridge",
                "count": 1
            }
        },
        {
            "type": "Feature",
            "geometry": {
                "type": "Point",
                "coordinates": [
                    16.601912,
                    59.919356
                ]
            },
            "properties": {
                "title": "AgueliZone",
                "count": 1
            }
        },
        {
            "type": "Feature",
            "geometry": {
                "type": "Point",
                "coordinates": [
                    16.687614,
                    59.600748
                ]
            },
            "properties": {
                "title": "WoolWeZone",
                "count": 1
            }
        },
        {
            "type": "Feature",
            "geometry": {
                "type": "Point",
                "coordinates": [
                    16.583855,
                    59.628013
                ]
            },
            "properties": {
                "title": "ZeroTennis",
                "count": 1
            }
        },